{
  "cities": [
    {
      "city": "Zagreb",
      "lat": "45.8000",
      "lng": "15.9500",
      "country": "Croatia",
      "iso2": "HR"
    },
    {
      "city": "Split",
      "lat": "43.5100",
      "lng": "16.4500",
      "country": "Croatia",
      "iso2": "HR"
    },
    {
      "city": "Rijeka",
      "lat": "45.3272",
      "lng": "14.4411",
      "country": "Croatia",
      "iso2": "HR"
    },
    {
      "city": "Osijek",
      "lat": "45.5603",
      "lng": "18.6703",
      "country": "Croatia",
      "iso2": "HR"
    },
    {
      "city": "Zadar",
      "lat": "44.1167",
      "lng": "15.2167",
      "country": "Croatia",
      "iso2": "HR"
    },
    {
      "city": "Velika Gorica",
      "lat": "45.7000",
      "lng": "16.0667",
      "country": "Croatia",
      "iso2": "HR"
    },
    {
      "city": "Pula",
      "lat": "44.8667",
      "lng": "13.8333",
      "country": "Croatia",
      "iso2": "HR"
    },
    {
      "city": "Slavonski Brod",
      "lat": "45.1553",
      "lng": "18.0144",
      "country": "Croatia",
      "iso2": "HR"
    },
    {
      "city": "Karlovac",
      "lat": "45.4931",
      "lng": "15.5558",
      "country": "Croatia",
      "iso2": "HR"
    },
    {
      "city": "Šibenik",
      "lat": "43.7339",
      "lng": "15.8956",
      "country": "Croatia",
      "iso2": "HR"
    },
    {
      "city": "Kaštel Stari",
      "lat": "43.5483",
      "lng": "16.3383",
      "country": "Croatia",
      "iso2": "HR"
    },
    {
      "city": "Dubrovnik",
      "lat": "42.6403",
      "lng": "18.1083",
      "country": "Croatia",
      "iso2": "HR"
    },
    {
      "city": "Bjelovar",
      "lat": "45.8989",
      "lng": "16.8422",
      "country": "Croatia",
      "iso2": "HR"
    },
    {
      "city": "Sisak",
      "lat": "45.4872",
      "lng": "16.3761",
      "country": "Croatia",
      "iso2": "HR"
    },
    {
      "city": "Čakovec",
      "lat": "46.3833",
      "lng": "16.4333",
      "country": "Croatia",
      "iso2": "HR"
    },
    {
      "city": "Vukovar",
      "lat": "45.3500",
      "lng": "19.0033",
      "country": "Croatia",
      "iso2": "HR"
    },
    {
      "city": "Virovitica",
      "lat": "45.8333",
      "lng": "17.3833",
      "country": "Croatia",
      "iso2": "HR"
    },
    {
      "city": "Samobor",
      "lat": "45.8011",
      "lng": "15.7110",
      "country": "Croatia",
      "iso2": "HR"
    },
    {
      "city": "Vrbovec",
      "lat": "45.8833",
      "lng": "16.4333",
      "country": "Croatia",
      "iso2": "HR"
    },
    {
      "city": "Ivanić-Grad",
      "lat": "45.7081",
      "lng": "16.3947",
      "country": "Croatia",
      "iso2": "HR"
    },
    {
      "city": "Rovinj",
      "lat": "45.0833",
      "lng": "13.6333",
      "country": "Croatia",
      "iso2": "HR"
    },
    {
      "city": "Trogir",
      "lat": "43.5167",
      "lng": "16.2500",
      "country": "Croatia",
      "iso2": "HR"
    },
    {
      "city": "Županja",
      "lat": "45.0667",
      "lng": "18.7000",
      "country": "Croatia",
      "iso2": "HR"
    },
    {
      "city": "Nova Gradiška",
      "lat": "45.2500",
      "lng": "17.3833",
      "country": "Croatia",
      "iso2": "HR"
    },
    {
      "city": "Opatija",
      "lat": "45.3347",
      "lng": "14.3069",
      "country": "Croatia",
      "iso2": "HR"
    },
    {
      "city": "Labin",
      "lat": "45.0833",
      "lng": "14.1167",
      "country": "Croatia",
      "iso2": "HR"
    },
    {
      "city": "Križevci",
      "lat": "46.0333",
      "lng": "16.5333",
      "country": "Croatia",
      "iso2": "HR"
    },
    {
      "city": "Crikvenica",
      "lat": "45.1833",
      "lng": "14.7000",
      "country": "Croatia",
      "iso2": "HR"
    },
    {
      "city": "Knin",
      "lat": "44.0333",
      "lng": "16.1833",
      "country": "Croatia",
      "iso2": "HR"
    },
    {
      "city": "Kastav",
      "lat": "45.3726",
      "lng": "14.3490",
      "country": "Croatia",
      "iso2": "HR"
    },
    {
      "city": "Slatina",
      "lat": "45.7000",
      "lng": "17.7000",
      "country": "Croatia",
      "iso2": "HR"
    },
    {
      "city": "Daruvar",
      "lat": "45.6000",
      "lng": "17.2167",
      "country": "Croatia",
      "iso2": "HR"
    },
    {
      "city": "Čepin",
      "lat": "45.5236",
      "lng": "18.5633",
      "country": "Croatia",
      "iso2": "HR"
    },
    {
      "city": "Bedekovčina",
      "lat": "46.0333",
      "lng": "16.0000",
      "country": "Croatia",
      "iso2": "HR"
    },
    {
      "city": "Našice",
      "lat": "45.4833",
      "lng": "18.1000",
      "country": "Croatia",
      "iso2": "HR"
    },
    {
      "city": "Poreč",
      "lat": "45.2167",
      "lng": "13.5833",
      "country": "Croatia",
      "iso2": "HR"
    },
    {
      "city": "Križ",
      "lat": "45.6500",
      "lng": "16.5167",
      "country": "Croatia",
      "iso2": "HR"
    },
    {
      "city": "Čavle",
      "lat": "45.3500",
      "lng": "14.4800",
      "country": "Croatia",
      "iso2": "HR"
    },
    {
      "city": "Novska",
      "lat": "45.3333",
      "lng": "16.9833",
      "country": "Croatia",
      "iso2": "HR"
    },
    {
      "city": "Ploče",
      "lat": "43.0525",
      "lng": "17.4367",
      "country": "Croatia",
      "iso2": "HR"
    },
    {
      "city": "Belišće",
      "lat": "45.6825",
      "lng": "18.4069",
      "country": "Croatia",
      "iso2": "HR"
    },
    {
      "city": "Krk",
      "lat": "45.0261",
      "lng": "14.5756",
      "country": "Croatia",
      "iso2": "HR"
    },
    {
      "city": "Donji Miholjac",
      "lat": "45.7500",
      "lng": "18.1500",
      "country": "Croatia",
      "iso2": "HR"
    },
    {
      "city": "Ivankovo",
      "lat": "45.2833",
      "lng": "18.6833",
      "country": "Croatia",
      "iso2": "HR"
    },
    {
      "city": "Gospić",
      "lat": "44.5469",
      "lng": "15.3744",
      "country": "Croatia",
      "iso2": "HR"
    },
    {
      "city": "Cestica",
      "lat": "46.3700",
      "lng": "16.1200",
      "country": "Croatia",
      "iso2": "HR"
    },
    {
      "city": "Darda",
      "lat": "45.6261",
      "lng": "18.6925",
      "country": "Croatia",
      "iso2": "HR"
    },
    {
      "city": "Buje",
      "lat": "45.4000",
      "lng": "13.6500",
      "country": "Croatia",
      "iso2": "HR"
    },
    {
      "city": "Ilok",
      "lat": "45.2225",
      "lng": "19.3728",
      "country": "Croatia",
      "iso2": "HR"
    },
    {
      "city": "Veliko Trgovišće",
      "lat": "46.0000",
      "lng": "15.8500",
      "country": "Croatia",
      "iso2": "HR"
    },
    {
      "city": "Vojnić",
      "lat": "45.3200",
      "lng": "15.6900",
      "country": "Croatia",
      "iso2": "HR"
    },
    {
      "city": "Glina",
      "lat": "45.3383",
      "lng": "16.0911",
      "country": "Croatia",
      "iso2": "HR"
    },
    {
      "city": "Delnice",
      "lat": "45.4000",
      "lng": "14.8000",
      "country": "Croatia",
      "iso2": "HR"
    },
    {
      "city": "Vela Luka",
      "lat": "42.9611",
      "lng": "16.7194",
      "country": "Croatia",
      "iso2": "HR"
    },
    {
      "city": "Imotski",
      "lat": "43.4500",
      "lng": "17.2167",
      "country": "Croatia",
      "iso2": "HR"
    },
    {
      "city": "Kutjevo",
      "lat": "45.4258",
      "lng": "17.8833",
      "country": "Croatia",
      "iso2": "HR"
    },
    {
      "city": "Orahovica",
      "lat": "45.5400",
      "lng": "17.8847",
      "country": "Croatia",
      "iso2": "HR"
    },
    {
      "city": "Jakovlje",
      "lat": "45.9364",
      "lng": "15.8553",
      "country": "Croatia",
      "iso2": "HR"
    },
    {
      "city": "Bošnjaci",
      "lat": "45.0500",
      "lng": "18.7600",
      "country": "Croatia",
      "iso2": "HR"
    },
    {
      "city": "Josipdol",
      "lat": "45.1886",
      "lng": "15.2848",
      "country": "Croatia",
      "iso2": "HR"
    },
    {
      "city": "Gunja",
      "lat": "44.8967",
      "lng": "18.8500",
      "country": "Croatia",
      "iso2": "HR"
    },
    {
      "city": "Brestovac",
      "lat": "45.3306",
      "lng": "17.5963",
      "country": "Croatia",
      "iso2": "HR"
    },
    {
      "city": "Novalja",
      "lat": "44.5500",
      "lng": "14.8833",
      "country": "Croatia",
      "iso2": "HR"
    },
    {
      "city": "Bilje",
      "lat": "45.6069",
      "lng": "18.7439",
      "country": "Croatia",
      "iso2": "HR"
    },
    {
      "city": "Babina Greda",
      "lat": "45.1167",
      "lng": "18.5333",
      "country": "Croatia",
      "iso2": "HR"
    },
    {
      "city": "Martinska Ves",
      "lat": "45.5800",
      "lng": "16.3700",
      "country": "Croatia",
      "iso2": "HR"
    },
    {
      "city": "Pleternica",
      "lat": "45.2864",
      "lng": "17.8019",
      "country": "Croatia",
      "iso2": "HR"
    },
    {
      "city": "Vodnjan",
      "lat": "44.9667",
      "lng": "13.8500",
      "country": "Croatia",
      "iso2": "HR"
    },
    {
      "city": "Gradac",
      "lat": "43.1061",
      "lng": "17.3411",
      "country": "Croatia",
      "iso2": "HR"
    },
    {
      "city": "Supetar",
      "lat": "43.3844",
      "lng": "16.5553",
      "country": "Croatia",
      "iso2": "HR"
    },
    {
      "city": "Primošten",
      "lat": "43.5833",
      "lng": "15.9167",
      "country": "Croatia",
      "iso2": "HR"
    },
    {
      "city": "Ivanska",
      "lat": "45.7833",
      "lng": "16.8167",
      "country": "Croatia",
      "iso2": "HR"
    },
    {
      "city": "Veliki Grđevac",
      "lat": "45.7500",
      "lng": "17.0500",
      "country": "Croatia",
      "iso2": "HR"
    },
    {
      "city": "Gradište",
      "lat": "45.1500",
      "lng": "18.7100",
      "country": "Croatia",
      "iso2": "HR"
    },
    {
      "city": "Veliko Trojstvo",
      "lat": "45.9333",
      "lng": "16.9333",
      "country": "Croatia",
      "iso2": "HR"
    },
    {
      "city": "Dežanovac",
      "lat": "45.5667",
      "lng": "17.0833",
      "country": "Croatia",
      "iso2": "HR"
    },
    {
      "city": "Vrlika",
      "lat": "43.9167",
      "lng": "16.4000",
      "country": "Croatia",
      "iso2": "HR"
    },
    {
      "city": "Suhopolje",
      "lat": "45.7997",
      "lng": "17.4992",
      "country": "Croatia",
      "iso2": "HR"
    },
    {
      "city": "Benkovac",
      "lat": "44.0344",
      "lng": "15.6128",
      "country": "Croatia",
      "iso2": "HR"
    },
    {
      "city": "Novigrad",
      "lat": "45.3200",
      "lng": "13.5600",
      "country": "Croatia",
      "iso2": "HR"
    },
    {
      "city": "Strizivojna",
      "lat": "45.2300",
      "lng": "18.4200",
      "country": "Croatia",
      "iso2": "HR"
    },
    {
      "city": "Budinšćina",
      "lat": "46.1256",
      "lng": "16.2050",
      "country": "Croatia",
      "iso2": "HR"
    },
    {
      "city": "Donji Andrijevci",
      "lat": "45.1833",
      "lng": "18.3000",
      "country": "Croatia",
      "iso2": "HR"
    },
    {
      "city": "Jarmina",
      "lat": "45.3167",
      "lng": "18.7333",
      "country": "Croatia",
      "iso2": "HR"
    },
    {
      "city": "Rešetari",
      "lat": "45.2631",
      "lng": "17.4233",
      "country": "Croatia",
      "iso2": "HR"
    },
    {
      "city": "Sibinj",
      "lat": "45.1894",
      "lng": "17.9081",
      "country": "Croatia",
      "iso2": "HR"
    },
    {
      "city": "Stari Mikanovci",
      "lat": "45.2833",
      "lng": "18.5500",
      "country": "Croatia",
      "iso2": "HR"
    },
    {
      "city": "Končanica",
      "lat": "45.6379",
      "lng": "17.1646",
      "country": "Croatia",
      "iso2": "HR"
    },
    {
      "city": "Hrvatska Dubica",
      "lat": "45.1893",
      "lng": "16.7985",
      "country": "Croatia",
      "iso2": "HR"
    },
    {
      "city": "Petrijevci",
      "lat": "45.6128",
      "lng": "18.5353",
      "country": "Croatia",
      "iso2": "HR"
    },
    {
      "city": "Vrbanja",
      "lat": "44.9833",
      "lng": "18.9333",
      "country": "Croatia",
      "iso2": "HR"
    },
    {
      "city": "Beretinec",
      "lat": "46.2500",
      "lng": "16.3000",
      "country": "Croatia",
      "iso2": "HR"
    },
    {
      "city": "Štitar",
      "lat": "45.1000",
      "lng": "18.6400",
      "country": "Croatia",
      "iso2": "HR"
    },
    {
      "city": "Velika",
      "lat": "45.4556",
      "lng": "17.6625",
      "country": "Croatia",
      "iso2": "HR"
    },
    {
      "city": "Čačinci",
      "lat": "45.6000",
      "lng": "17.8700",
      "country": "Croatia",
      "iso2": "HR"
    },
    {
      "city": "Cerna",
      "lat": "45.1903",
      "lng": "18.6889",
      "country": "Croatia",
      "iso2": "HR"
    },
    {
      "city": "Andrijaševci",
      "lat": "45.2167",
      "lng": "18.7333",
      "country": "Croatia",
      "iso2": "HR"
    },
    {
      "city": "Bizovac",
      "lat": "45.6000",
      "lng": "18.4667",
      "country": "Croatia",
      "iso2": "HR"
    },
    {
      "city": "Gundinci",
      "lat": "45.1500",
      "lng": "18.4833",
      "country": "Croatia",
      "iso2": "HR"
    },
    {
      "city": "Bukovlje",
      "lat": "45.1900",
      "lng": "18.0700",
      "country": "Croatia",
      "iso2": "HR"
    },
    {
      "city": "Vođinci",
      "lat": "45.2756",
      "lng": "18.6097",
      "country": "Croatia",
      "iso2": "HR"
    },
    {
      "city": "Drenovci",
      "lat": "44.9200",
      "lng": "18.8500",
      "country": "Croatia",
      "iso2": "HR"
    },
    {
      "city": "Gornja Vrba",
      "lat": "45.1500",
      "lng": "18.0667",
      "country": "Croatia",
      "iso2": "HR"
    },
    {
      "city": "Jakšić",
      "lat": "45.3581",
      "lng": "17.7639",
      "country": "Croatia",
      "iso2": "HR"
    },
    {
      "city": "Oriovac",
      "lat": "45.1661",
      "lng": "17.7600",
      "country": "Croatia",
      "iso2": "HR"
    },
    {
      "city": "Sikirevci",
      "lat": "45.1167",
      "lng": "18.4667",
      "country": "Croatia",
      "iso2": "HR"
    },
    {
      "city": "Brela",
      "lat": "43.3700",
      "lng": "16.9300",
      "country": "Croatia",
      "iso2": "HR"
    },
    {
      "city": "Varaždinske Toplice",
      "lat": "46.2081",
      "lng": "16.4214",
      "country": "Croatia",
      "iso2": "HR"
    },
    {
      "city": "Velika Kopanica",
      "lat": "45.1500",
      "lng": "18.4000",
      "country": "Croatia",
      "iso2": "HR"
    },
    {
      "city": "Vrpolje",
      "lat": "45.2106",
      "lng": "18.4056",
      "country": "Croatia",
      "iso2": "HR"
    },
    {
      "city": "Preseka",
      "lat": "45.9667",
      "lng": "16.3833",
      "country": "Croatia",
      "iso2": "HR"
    },
    {
      "city": "Kneževi Vinogradi",
      "lat": "45.7500",
      "lng": "18.7300",
      "country": "Croatia",
      "iso2": "HR"
    },
    {
      "city": "Feričanci",
      "lat": "45.5333",
      "lng": "17.9833",
      "country": "Croatia",
      "iso2": "HR"
    },
    {
      "city": "Cernik",
      "lat": "45.2900",
      "lng": "17.3800",
      "country": "Croatia",
      "iso2": "HR"
    },
    {
      "city": "Nijemci",
      "lat": "45.1333",
      "lng": "19.0333",
      "country": "Croatia",
      "iso2": "HR"
    },
    {
      "city": "Okučani",
      "lat": "45.2603",
      "lng": "17.1989",
      "country": "Croatia",
      "iso2": "HR"
    },
    {
      "city": "Brodski Stupnik",
      "lat": "45.1670",
      "lng": "17.8000",
      "country": "Croatia",
      "iso2": "HR"
    },
    {
      "city": "Breznički Hum",
      "lat": "46.1189",
      "lng": "16.2739",
      "country": "Croatia",
      "iso2": "HR"
    },
    {
      "city": "Staro Petrovo Selo",
      "lat": "45.2333",
      "lng": "17.5167",
      "country": "Croatia",
      "iso2": "HR"
    },
    {
      "city": "Bakar",
      "lat": "45.3167",
      "lng": "14.5333",
      "country": "Croatia",
      "iso2": "HR"
    },
    {
      "city": "Postire",
      "lat": "43.3757",
      "lng": "16.6298",
      "country": "Croatia",
      "iso2": "HR"
    },
    {
      "city": "Pučišće",
      "lat": "43.3475",
      "lng": "16.7300",
      "country": "Croatia",
      "iso2": "HR"
    },
    {
      "city": "Koška",
      "lat": "45.5500",
      "lng": "18.2833",
      "country": "Croatia",
      "iso2": "HR"
    },
    {
      "city": "Lopar",
      "lat": "44.8306",
      "lng": "14.7306",
      "country": "Croatia",
      "iso2": "HR"
    },
    {
      "city": "Trpinja",
      "lat": "45.4167",
      "lng": "18.9000",
      "country": "Croatia",
      "iso2": "HR"
    },
    {
      "city": "Negoslavci",
      "lat": "45.2800",
      "lng": "19.0000",
      "country": "Croatia",
      "iso2": "HR"
    },
    {
      "city": "Bedenica",
      "lat": "46.0223",
      "lng": "16.2639",
      "country": "Croatia",
      "iso2": "HR"
    },
    {
      "city": "Satnica Ðakovačka",
      "lat": "45.3558",
      "lng": "18.3781",
      "country": "Croatia",
      "iso2": "HR"
    },
    {
      "city": "Semeljci",
      "lat": "45.3667",
      "lng": "18.5500",
      "country": "Croatia",
      "iso2": "HR"
    },
    {
      "city": "Viljevo",
      "lat": "45.7500",
      "lng": "18.0667",
      "country": "Croatia",
      "iso2": "HR"
    },
    {
      "city": "Donja Motičina",
      "lat": "45.5000",
      "lng": "18.0167",
      "country": "Croatia",
      "iso2": "HR"
    },
    {
      "city": "Voćin",
      "lat": "45.6178",
      "lng": "17.5478",
      "country": "Croatia",
      "iso2": "HR"
    },
    {
      "city": "Viškovci",
      "lat": "45.3500",
      "lng": "18.4667",
      "country": "Croatia",
      "iso2": "HR"
    },
    {
      "city": "Vladislavci",
      "lat": "45.4667",
      "lng": "18.5667",
      "country": "Croatia",
      "iso2": "HR"
    },
    {
      "city": "Ernestinovo",
      "lat": "45.4500",
      "lng": "18.6600",
      "country": "Croatia",
      "iso2": "HR"
    },
    {
      "city": "Markušica",
      "lat": "45.3738",
      "lng": "18.7062",
      "country": "Croatia",
      "iso2": "HR"
    },
    {
      "city": "Zagorska Sela",
      "lat": "46.0969",
      "lng": "15.6350",
      "country": "Croatia",
      "iso2": "HR"
    },
    {
      "city": "Čeminac",
      "lat": "45.6867",
      "lng": "18.6683",
      "country": "Croatia",
      "iso2": "HR"
    },
    {
      "city": "Zdenci",
      "lat": "45.5892",
      "lng": "17.9503",
      "country": "Croatia",
      "iso2": "HR"
    },
    {
      "city": "Garčin",
      "lat": "45.1817",
      "lng": "18.1856",
      "country": "Croatia",
      "iso2": "HR"
    },
    {
      "city": "Oprisavci",
      "lat": "45.1500",
      "lng": "18.2333",
      "country": "Croatia",
      "iso2": "HR"
    },
    {
      "city": "Trpanj",
      "lat": "43.0080",
      "lng": "17.2734",
      "country": "Croatia",
      "iso2": "HR"
    },
    {
      "city": "Lovas",
      "lat": "45.2333",
      "lng": "19.1667",
      "country": "Croatia",
      "iso2": "HR"
    },
    {
      "city": "Podgorač",
      "lat": "45.4667",
      "lng": "18.2167",
      "country": "Croatia",
      "iso2": "HR"
    },
    {
      "city": "Mikleuš",
      "lat": "45.6200",
      "lng": "17.8000",
      "country": "Croatia",
      "iso2": "HR"
    },
    {
      "city": "Marjanci",
      "lat": "45.6667",
      "lng": "18.3000",
      "country": "Croatia",
      "iso2": "HR"
    },
    {
      "city": "Nova Bukovica",
      "lat": "45.6600",
      "lng": "17.7669",
      "country": "Croatia",
      "iso2": "HR"
    },
    {
      "city": "Podravska Moslavina",
      "lat": "45.7853",
      "lng": "17.9819",
      "country": "Croatia",
      "iso2": "HR"
    },
    {
      "city": "Povljana",
      "lat": "44.3467",
      "lng": "15.1156",
      "country": "Croatia",
      "iso2": "HR"
    },
    {
      "city": "Tordinci",
      "lat": "45.3667",
      "lng": "18.8000",
      "country": "Croatia",
      "iso2": "HR"
    },
    {
      "city": "Petlovac",
      "lat": "45.7583",
      "lng": "18.5281",
      "country": "Croatia",
      "iso2": "HR"
    },
    {
      "city": "Gornji Bogičevci",
      "lat": "45.2600",
      "lng": "17.2300",
      "country": "Croatia",
      "iso2": "HR"
    },
    {
      "city": "Čađavica",
      "lat": "45.7425",
      "lng": "17.8550",
      "country": "Croatia",
      "iso2": "HR"
    },
    {
      "city": "Punitovci",
      "lat": "45.4331",
      "lng": "18.4164",
      "country": "Croatia",
      "iso2": "HR"
    },
    {
      "city": "Čaglin",
      "lat": "45.3500",
      "lng": "17.9833",
      "country": "Croatia",
      "iso2": "HR"
    },
    {
      "city": "Drenje",
      "lat": "45.3800",
      "lng": "18.2800",
      "country": "Croatia",
      "iso2": "HR"
    },
    {
      "city": "Dragalić",
      "lat": "45.2500",
      "lng": "17.2833",
      "country": "Croatia",
      "iso2": "HR"
    },
    {
      "city": "Sopje",
      "lat": "45.8011",
      "lng": "17.7425",
      "country": "Croatia",
      "iso2": "HR"
    },
    {
      "city": "Draž",
      "lat": "45.8422",
      "lng": "18.7886",
      "country": "Croatia",
      "iso2": "HR"
    },
    {
      "city": "Bebrina",
      "lat": "45.1000",
      "lng": "17.8333",
      "country": "Croatia",
      "iso2": "HR"
    },
    {
      "city": "Vrbje",
      "lat": "45.1833",
      "lng": "17.4167",
      "country": "Croatia",
      "iso2": "HR"
    },
    {
      "city": "Podcrkavlje",
      "lat": "45.2167",
      "lng": "18.0167",
      "country": "Croatia",
      "iso2": "HR"
    },
    {
      "city": "Tounj",
      "lat": "45.2528",
      "lng": "15.3260",
      "country": "Croatia",
      "iso2": "HR"
    },
    {
      "city": "Šodolovci",
      "lat": "45.3997",
      "lng": "18.6209",
      "country": "Croatia",
      "iso2": "HR"
    },
    {
      "city": "Stara Gradiška",
      "lat": "45.1500",
      "lng": "17.2500",
      "country": "Croatia",
      "iso2": "HR"
    },
    {
      "city": "Tompojevci",
      "lat": "45.2333",
      "lng": "19.1000",
      "country": "Croatia",
      "iso2": "HR"
    },
    {
      "city": "Kumrovec",
      "lat": "46.0856",
      "lng": "15.6778",
      "country": "Croatia",
      "iso2": "HR"
    },
    {
      "city": "Levanjska Varoš",
      "lat": "45.3167",
      "lng": "18.1833",
      "country": "Croatia",
      "iso2": "HR"
    },
    {
      "city": "Klakar",
      "lat": "45.1000",
      "lng": "18.1333",
      "country": "Croatia",
      "iso2": "HR"
    },
    {
      "city": "Magadenovac",
      "lat": "45.6608",
      "lng": "18.1878",
      "country": "Croatia",
      "iso2": "HR"
    },
    {
      "city": "Prgomet",
      "lat": "43.6160",
      "lng": "16.2300",
      "country": "Croatia",
      "iso2": "HR"
    },
    {
      "city": "Varaždin",
      "lat": "46.3000",
      "lng": "16.3333",
      "country": "Croatia",
      "iso2": "HR"
    },
    {
      "city": "Koprivnica",
      "lat": "46.1500",
      "lng": "16.8167",
      "country": "Croatia",
      "iso2": "HR"
    },
    {
      "city": "Požega",
      "lat": "45.3314",
      "lng": "17.6744",
      "country": "Croatia",
      "iso2": "HR"
    },
    {
      "city": "Krapina",
      "lat": "46.1589",
      "lng": "15.8744",
      "country": "Croatia",
      "iso2": "HR"
    },
    {
      "city": "Pazin",
      "lat": "45.2392",
      "lng": "13.9386",
      "country": "Croatia",
      "iso2": "HR"
    },
    {
      "city": "Podstrana",
      "lat": "43.4800",
      "lng": "16.5800",
      "country": "Croatia",
      "iso2": "HR"
    },
    {
      "city": "Viškovo",
      "lat": "45.3600",
      "lng": "14.3800",
      "country": "Croatia",
      "iso2": "HR"
    },
    {
      "city": "Sračinec",
      "lat": "46.3294",
      "lng": "16.2789",
      "country": "Croatia",
      "iso2": "HR"
    },
    {
      "city": "Solin",
      "lat": "43.5394",
      "lng": "16.4831",
      "country": "Croatia",
      "iso2": "HR"
    },
    {
      "city": "Kaštel Sućurac",
      "lat": "43.5503",
      "lng": "16.4264",
      "country": "Croatia",
      "iso2": "HR"
    },
    {
      "city": "Zaprešić",
      "lat": "45.8500",
      "lng": "15.8000",
      "country": "Croatia",
      "iso2": "HR"
    },
    {
      "city": "Brdovec",
      "lat": "45.8703",
      "lng": "15.7644",
      "country": "Croatia",
      "iso2": "HR"
    },
    {
      "city": "Dugi Rat",
      "lat": "43.4461",
      "lng": "16.6389",
      "country": "Croatia",
      "iso2": "HR"
    },
    {
      "city": "Sveta Nedjelja",
      "lat": "45.7983",
      "lng": "15.7806",
      "country": "Croatia",
      "iso2": "HR"
    },
    {
      "city": "Okrug Gornji",
      "lat": "43.4969",
      "lng": "16.2200",
      "country": "Croatia",
      "iso2": "HR"
    },
    {
      "city": "Kostrena",
      "lat": "45.3011",
      "lng": "14.5056",
      "country": "Croatia",
      "iso2": "HR"
    },
    {
      "city": "Vinkovci",
      "lat": "45.2833",
      "lng": "18.8000",
      "country": "Croatia",
      "iso2": "HR"
    },
    {
      "city": "Dugo Selo",
      "lat": "45.8000",
      "lng": "16.2333",
      "country": "Croatia",
      "iso2": "HR"
    },
    {
      "city": "Šenkovec",
      "lat": "46.4100",
      "lng": "16.4200",
      "country": "Croatia",
      "iso2": "HR"
    },
    {
      "city": "Makarska",
      "lat": "43.2931",
      "lng": "17.0200",
      "country": "Croatia",
      "iso2": "HR"
    },
    {
      "city": "Strahoninec",
      "lat": "46.3689",
      "lng": "16.4150",
      "country": "Croatia",
      "iso2": "HR"
    },
    {
      "city": "Metković",
      "lat": "43.0500",
      "lng": "17.6500",
      "country": "Croatia",
      "iso2": "HR"
    },
    {
      "city": "Bibinje",
      "lat": "44.0717",
      "lng": "15.2878",
      "country": "Croatia",
      "iso2": "HR"
    },
    {
      "city": "Petrovsko",
      "lat": "46.1600",
      "lng": "15.8400",
      "country": "Croatia",
      "iso2": "HR"
    },
    {
      "city": "Donji Seget",
      "lat": "43.5167",
      "lng": "16.2333",
      "country": "Croatia",
      "iso2": "HR"
    },
    {
      "city": "Sveti Ilija",
      "lat": "46.2450",
      "lng": "16.3381",
      "country": "Croatia",
      "iso2": "HR"
    },
    {
      "city": "Privlaka",
      "lat": "44.2633",
      "lng": "15.1197",
      "country": "Croatia",
      "iso2": "HR"
    },
    {
      "city": "Tovarnik",
      "lat": "45.1667",
      "lng": "19.1500",
      "country": "Croatia",
      "iso2": "HR"
    },
    {
      "city": "Kraljevica",
      "lat": "45.2741",
      "lng": "14.5683",
      "country": "Croatia",
      "iso2": "HR"
    },
    {
      "city": "Pribislavec",
      "lat": "46.3925",
      "lng": "16.4825",
      "country": "Croatia",
      "iso2": "HR"
    },
    {
      "city": "Zabok",
      "lat": "46.0500",
      "lng": "15.9667",
      "country": "Croatia",
      "iso2": "HR"
    },
    {
      "city": "Nedelišće",
      "lat": "46.3800",
      "lng": "16.3900",
      "country": "Croatia",
      "iso2": "HR"
    },
    {
      "city": "Lovran",
      "lat": "45.2917",
      "lng": "14.2764",
      "country": "Croatia",
      "iso2": "HR"
    },
    {
      "city": "Hum na Sutli",
      "lat": "46.2100",
      "lng": "15.6900",
      "country": "Croatia",
      "iso2": "HR"
    },
    {
      "city": "Srebreno",
      "lat": "42.6233",
      "lng": "18.1961",
      "country": "Croatia",
      "iso2": "HR"
    },
    {
      "city": "Luka",
      "lat": "45.9667",
      "lng": "15.8167",
      "country": "Croatia",
      "iso2": "HR"
    },
    {
      "city": "Trnovec Bartolovečki",
      "lat": "46.2947",
      "lng": "16.3989",
      "country": "Croatia",
      "iso2": "HR"
    },
    {
      "city": "Medulin",
      "lat": "44.8197",
      "lng": "13.9350",
      "country": "Croatia",
      "iso2": "HR"
    },
    {
      "city": "Oroslavje",
      "lat": "45.9961",
      "lng": "15.9144",
      "country": "Croatia",
      "iso2": "HR"
    },
    {
      "city": "Fažana",
      "lat": "44.9281",
      "lng": "13.8042",
      "country": "Croatia",
      "iso2": "HR"
    },
    {
      "city": "Duga Resa",
      "lat": "45.4472",
      "lng": "15.4958",
      "country": "Croatia",
      "iso2": "HR"
    },
    {
      "city": "Nuštar",
      "lat": "45.3333",
      "lng": "18.8333",
      "country": "Croatia",
      "iso2": "HR"
    },
    {
      "city": "Ðakovo",
      "lat": "45.3083",
      "lng": "18.4106",
      "country": "Croatia",
      "iso2": "HR"
    },
    {
      "city": "Vir",
      "lat": "44.3000",
      "lng": "15.0900",
      "country": "Croatia",
      "iso2": "HR"
    },
    {
      "city": "Lopatinec",
      "lat": "46.4333",
      "lng": "16.3833",
      "country": "Croatia",
      "iso2": "HR"
    },
    {
      "city": "Umag",
      "lat": "45.4336",
      "lng": "13.5172",
      "country": "Croatia",
      "iso2": "HR"
    },
    {
      "city": "Beli Manastir",
      "lat": "45.7667",
      "lng": "18.6000",
      "country": "Croatia",
      "iso2": "HR"
    },
    {
      "city": "Vidovec",
      "lat": "46.2833",
      "lng": "16.2411",
      "country": "Croatia",
      "iso2": "HR"
    },
    {
      "city": "Biograd na Moru",
      "lat": "43.9333",
      "lng": "15.4333",
      "country": "Croatia",
      "iso2": "HR"
    },
    {
      "city": "Gornji Stupnik",
      "lat": "45.7619",
      "lng": "15.8484",
      "country": "Croatia",
      "iso2": "HR"
    },
    {
      "city": "Gornji Kneginec",
      "lat": "46.2500",
      "lng": "16.3700",
      "country": "Croatia",
      "iso2": "HR"
    },
    {
      "city": "Sveti Križ Začretje",
      "lat": "46.0800",
      "lng": "15.9100",
      "country": "Croatia",
      "iso2": "HR"
    },
    {
      "city": "Marija Gorica",
      "lat": "45.9200",
      "lng": "15.7300",
      "country": "Croatia",
      "iso2": "HR"
    },
    {
      "city": "Ivanec",
      "lat": "46.2167",
      "lng": "16.1167",
      "country": "Croatia",
      "iso2": "HR"
    },
    {
      "city": "Galovac",
      "lat": "44.0714",
      "lng": "15.3933",
      "country": "Croatia",
      "iso2": "HR"
    },
    {
      "city": "Orehovica",
      "lat": "46.3317",
      "lng": "16.5069",
      "country": "Croatia",
      "iso2": "HR"
    },
    {
      "city": "Donja Pušća",
      "lat": "45.9333",
      "lng": "15.7667",
      "country": "Croatia",
      "iso2": "HR"
    },
    {
      "city": "Prelog",
      "lat": "46.3350",
      "lng": "16.6150",
      "country": "Croatia",
      "iso2": "HR"
    },
    {
      "city": "Mursko Središće",
      "lat": "46.5000",
      "lng": "16.4333",
      "country": "Croatia",
      "iso2": "HR"
    },
    {
      "city": "Vrsar",
      "lat": "45.1500",
      "lng": "13.6100",
      "country": "Croatia",
      "iso2": "HR"
    },
    {
      "city": "Poljanica Bistranska",
      "lat": "45.9000",
      "lng": "15.8833",
      "country": "Croatia",
      "iso2": "HR"
    },
    {
      "city": "Donja Stubica",
      "lat": "45.9833",
      "lng": "15.9667",
      "country": "Croatia",
      "iso2": "HR"
    },
    {
      "city": "Lepoglava",
      "lat": "46.2000",
      "lng": "16.0333",
      "country": "Croatia",
      "iso2": "HR"
    },
    {
      "city": "Goričan",
      "lat": "46.3833",
      "lng": "16.6833",
      "country": "Croatia",
      "iso2": "HR"
    },
    {
      "city": "Funtana",
      "lat": "45.1731",
      "lng": "13.6061",
      "country": "Croatia",
      "iso2": "HR"
    },
    {
      "city": "Maruševec",
      "lat": "46.2889",
      "lng": "16.1831",
      "country": "Croatia",
      "iso2": "HR"
    },
    {
      "city": "Mala Subotica",
      "lat": "46.3800",
      "lng": "16.5400",
      "country": "Croatia",
      "iso2": "HR"
    },
    {
      "city": "Selnica",
      "lat": "46.4961",
      "lng": "16.4036",
      "country": "Croatia",
      "iso2": "HR"
    },
    {
      "city": "Tar",
      "lat": "45.3008",
      "lng": "13.6253",
      "country": "Croatia",
      "iso2": "HR"
    },
    {
      "city": "Ðurmanec",
      "lat": "46.1964",
      "lng": "15.8408",
      "country": "Croatia",
      "iso2": "HR"
    },
    {
      "city": "Ludbreg",
      "lat": "46.2500",
      "lng": "16.6017",
      "country": "Croatia",
      "iso2": "HR"
    },
    {
      "city": "Vratišinec",
      "lat": "46.4800",
      "lng": "16.4600",
      "country": "Croatia",
      "iso2": "HR"
    },
    {
      "city": "Donji Kraljevec",
      "lat": "46.3700",
      "lng": "16.6500",
      "country": "Croatia",
      "iso2": "HR"
    },
    {
      "city": "Kukljica",
      "lat": "44.0350",
      "lng": "15.2464",
      "country": "Croatia",
      "iso2": "HR"
    },
    {
      "city": "Špišić-Bukovica",
      "lat": "45.8561",
      "lng": "17.3000",
      "country": "Croatia",
      "iso2": "HR"
    },
    {
      "city": "Kali",
      "lat": "44.0600",
      "lng": "15.2100",
      "country": "Croatia",
      "iso2": "HR"
    },
    {
      "city": "Novi Marof",
      "lat": "46.1667",
      "lng": "16.3333",
      "country": "Croatia",
      "iso2": "HR"
    },
    {
      "city": "Bilice",
      "lat": "43.7753",
      "lng": "15.9181",
      "country": "Croatia",
      "iso2": "HR"
    },
    {
      "city": "Sinj",
      "lat": "43.7000",
      "lng": "16.6333",
      "country": "Croatia",
      "iso2": "HR"
    },
    {
      "city": "Zmijavci",
      "lat": "43.4108",
      "lng": "17.2056",
      "country": "Croatia",
      "iso2": "HR"
    },
    {
      "city": "Krapinske Toplice",
      "lat": "46.0919",
      "lng": "15.8389",
      "country": "Croatia",
      "iso2": "HR"
    },
    {
      "city": "Zlatar Bistrica",
      "lat": "46.0600",
      "lng": "16.0700",
      "country": "Croatia",
      "iso2": "HR"
    },
    {
      "city": "Kotoriba",
      "lat": "46.3600",
      "lng": "16.8200",
      "country": "Croatia",
      "iso2": "HR"
    },
    {
      "city": "Lumbarda",
      "lat": "42.9286",
      "lng": "17.1714",
      "country": "Croatia",
      "iso2": "HR"
    },
    {
      "city": "Gornja Stubica",
      "lat": "45.9600",
      "lng": "16.0300",
      "country": "Croatia",
      "iso2": "HR"
    },
    {
      "city": "Baška Voda",
      "lat": "43.3574",
      "lng": "16.9491",
      "country": "Croatia",
      "iso2": "HR"
    },
    {
      "city": "Donja Dubrava",
      "lat": "46.3147",
      "lng": "16.8119",
      "country": "Croatia",
      "iso2": "HR"
    },
    {
      "city": "Sveti Martin na Muri",
      "lat": "46.5333",
      "lng": "16.3833",
      "country": "Croatia",
      "iso2": "HR"
    },
    {
      "city": "Belica",
      "lat": "46.4042",
      "lng": "16.5183",
      "country": "Croatia",
      "iso2": "HR"
    },
    {
      "city": "Vodice",
      "lat": "43.7506",
      "lng": "15.7789",
      "country": "Croatia",
      "iso2": "HR"
    },
    {
      "city": "Stubičke Toplice",
      "lat": "45.9661",
      "lng": "15.9300",
      "country": "Croatia",
      "iso2": "HR"
    },
    {
      "city": "Radoboj",
      "lat": "46.1664",
      "lng": "15.9236",
      "country": "Croatia",
      "iso2": "HR"
    },
    {
      "city": "Sveti Filip i Jakov",
      "lat": "43.9614",
      "lng": "15.4248",
      "country": "Croatia",
      "iso2": "HR"
    },
    {
      "city": "Slavonski Šamac",
      "lat": "45.0667",
      "lng": "18.4833",
      "country": "Croatia",
      "iso2": "HR"
    },
    {
      "city": "Podbablje",
      "lat": "43.4169",
      "lng": "17.1761",
      "country": "Croatia",
      "iso2": "HR"
    },
    {
      "city": "Sveta Marija",
      "lat": "46.3333",
      "lng": "16.7333",
      "country": "Croatia",
      "iso2": "HR"
    },
    {
      "city": "Podturen",
      "lat": "46.4647",
      "lng": "16.5461",
      "country": "Croatia",
      "iso2": "HR"
    },
    {
      "city": "Donji Vidovec",
      "lat": "46.3300",
      "lng": "16.7900",
      "country": "Croatia",
      "iso2": "HR"
    },
    {
      "city": "Pregrada",
      "lat": "46.1642",
      "lng": "15.7508",
      "country": "Croatia",
      "iso2": "HR"
    },
    {
      "city": "Opuzen",
      "lat": "43.0175",
      "lng": "17.5628",
      "country": "Croatia",
      "iso2": "HR"
    },
    {
      "city": "Vinica",
      "lat": "46.3361",
      "lng": "16.1494",
      "country": "Croatia",
      "iso2": "HR"
    },
    {
      "city": "Petrijanec",
      "lat": "46.3492",
      "lng": "16.2250",
      "country": "Croatia",
      "iso2": "HR"
    },
    {
      "city": "Brckovljani",
      "lat": "45.8300",
      "lng": "16.3000",
      "country": "Croatia",
      "iso2": "HR"
    },
    {
      "city": "Tuhelj",
      "lat": "46.0769",
      "lng": "15.7472",
      "country": "Croatia",
      "iso2": "HR"
    },
    {
      "city": "Mače",
      "lat": "46.0947",
      "lng": "16.0353",
      "country": "Croatia",
      "iso2": "HR"
    },
    {
      "city": "Koprivnički Bregi",
      "lat": "46.1386",
      "lng": "16.9058",
      "country": "Croatia",
      "iso2": "HR"
    },
    {
      "city": "Rugvica",
      "lat": "45.7361",
      "lng": "16.2331",
      "country": "Croatia",
      "iso2": "HR"
    },
    {
      "city": "Sveti Ðurđ",
      "lat": "46.2844",
      "lng": "16.6042",
      "country": "Croatia",
      "iso2": "HR"
    },
    {
      "city": "Jalžabet",
      "lat": "46.2600",
      "lng": "16.4800",
      "country": "Croatia",
      "iso2": "HR"
    },
    {
      "city": "Marija Bistrica",
      "lat": "46.0042",
      "lng": "16.1186",
      "country": "Croatia",
      "iso2": "HR"
    },
    {
      "city": "Sveti Ivan Zelina",
      "lat": "45.9500",
      "lng": "16.2333",
      "country": "Croatia",
      "iso2": "HR"
    },
    {
      "city": "Konjšćina",
      "lat": "46.0528",
      "lng": "16.1800",
      "country": "Croatia",
      "iso2": "HR"
    },
    {
      "city": "Tučepi",
      "lat": "43.2650",
      "lng": "17.0569",
      "country": "Croatia",
      "iso2": "HR"
    },
    {
      "city": "Škabrnje",
      "lat": "44.0916",
      "lng": "15.4516",
      "country": "Croatia",
      "iso2": "HR"
    },
    {
      "city": "Sukošan",
      "lat": "44.0490",
      "lng": "15.3120",
      "country": "Croatia",
      "iso2": "HR"
    },
    {
      "city": "Valpovo",
      "lat": "45.6500",
      "lng": "18.4167",
      "country": "Croatia",
      "iso2": "HR"
    },
    {
      "city": "Murter",
      "lat": "43.8204",
      "lng": "15.5899",
      "country": "Croatia",
      "iso2": "HR"
    },
    {
      "city": "Malinska",
      "lat": "45.1253",
      "lng": "14.5281",
      "country": "Croatia",
      "iso2": "HR"
    },
    {
      "city": "Vrsi",
      "lat": "44.2625",
      "lng": "15.2333",
      "country": "Croatia",
      "iso2": "HR"
    },
    {
      "city": "Omišalj",
      "lat": "45.2119",
      "lng": "14.5542",
      "country": "Croatia",
      "iso2": "HR"
    },
    {
      "city": "Rab",
      "lat": "44.7561",
      "lng": "14.7611",
      "country": "Croatia",
      "iso2": "HR"
    },
    {
      "city": "Novi Golubovec",
      "lat": "46.1800",
      "lng": "15.9800",
      "country": "Croatia",
      "iso2": "HR"
    },
    {
      "city": "Kloštar Ivanić",
      "lat": "45.7400",
      "lng": "16.4200",
      "country": "Croatia",
      "iso2": "HR"
    },
    {
      "city": "Lobor",
      "lat": "46.1500",
      "lng": "16.0600",
      "country": "Croatia",
      "iso2": "HR"
    },
    {
      "city": "Zlatar",
      "lat": "46.1500",
      "lng": "16.1167",
      "country": "Croatia",
      "iso2": "HR"
    },
    {
      "city": "Dekanovec",
      "lat": "46.4500",
      "lng": "16.5800",
      "country": "Croatia",
      "iso2": "HR"
    },
    {
      "city": "Kraljevec na Sutli",
      "lat": "45.9800",
      "lng": "15.7300",
      "country": "Croatia",
      "iso2": "HR"
    },
    {
      "city": "Matulji",
      "lat": "45.3667",
      "lng": "14.3167",
      "country": "Croatia",
      "iso2": "HR"
    },
    {
      "city": "Sveti Petar u Šumi",
      "lat": "45.1833",
      "lng": "13.8614",
      "country": "Croatia",
      "iso2": "HR"
    },
    {
      "city": "Tribunj",
      "lat": "43.7506",
      "lng": "15.7789",
      "country": "Croatia",
      "iso2": "HR"
    },
    {
      "city": "Kutina",
      "lat": "45.4791",
      "lng": "16.7768",
      "country": "Croatia",
      "iso2": "HR"
    },
    {
      "city": "Klenovnik",
      "lat": "46.2700",
      "lng": "16.0700",
      "country": "Croatia",
      "iso2": "HR"
    },
    {
      "city": "Dubravica",
      "lat": "45.9500",
      "lng": "15.7333",
      "country": "Croatia",
      "iso2": "HR"
    },
    {
      "city": "Davor",
      "lat": "45.1167",
      "lng": "17.5167",
      "country": "Croatia",
      "iso2": "HR"
    },
    {
      "city": "Bol",
      "lat": "43.2619",
      "lng": "16.6550",
      "country": "Croatia",
      "iso2": "HR"
    },
    {
      "city": "Jastrebarsko",
      "lat": "45.6667",
      "lng": "15.6500",
      "country": "Croatia",
      "iso2": "HR"
    },
    {
      "city": "Pakoštane",
      "lat": "43.9094",
      "lng": "15.5081",
      "country": "Croatia",
      "iso2": "HR"
    },
    {
      "city": "Klinča Sela",
      "lat": "45.6800",
      "lng": "15.7500",
      "country": "Croatia",
      "iso2": "HR"
    },
    {
      "city": "Antunovac",
      "lat": "45.4900",
      "lng": "18.6800",
      "country": "Croatia",
      "iso2": "HR"
    },
    {
      "city": "Ližnjan",
      "lat": "44.8286",
      "lng": "13.9564",
      "country": "Croatia",
      "iso2": "HR"
    },
    {
      "city": "Preko",
      "lat": "44.0864",
      "lng": "15.1828",
      "country": "Croatia",
      "iso2": "HR"
    },
    {
      "city": "Desinić",
      "lat": "46.1400",
      "lng": "15.6600",
      "country": "Croatia",
      "iso2": "HR"
    },
    {
      "city": "Petrinja",
      "lat": "45.4375",
      "lng": "16.2900",
      "country": "Croatia",
      "iso2": "HR"
    },
    {
      "city": "Gornji Mihaljevec",
      "lat": "46.4300",
      "lng": "16.3600",
      "country": "Croatia",
      "iso2": "HR"
    },
    {
      "city": "Veliki Bukovec",
      "lat": "46.2944",
      "lng": "16.7131",
      "country": "Croatia",
      "iso2": "HR"
    },
    {
      "city": "Donja Voća",
      "lat": "46.3000",
      "lng": "16.1000",
      "country": "Croatia",
      "iso2": "HR"
    },
    {
      "city": "Pitomača",
      "lat": "45.9506",
      "lng": "17.2294",
      "country": "Croatia",
      "iso2": "HR"
    },
    {
      "city": "Martijanec",
      "lat": "46.2667",
      "lng": "16.5333",
      "country": "Croatia",
      "iso2": "HR"
    },
    {
      "city": "Breznica",
      "lat": "46.0700",
      "lng": "16.2700",
      "country": "Croatia",
      "iso2": "HR"
    },
    {
      "city": "Tisno",
      "lat": "43.8042",
      "lng": "15.6433",
      "country": "Croatia",
      "iso2": "HR"
    },
    {
      "city": "Štrigova",
      "lat": "46.5000",
      "lng": "16.2881",
      "country": "Croatia",
      "iso2": "HR"
    },
    {
      "city": "Gornje Jesenje",
      "lat": "46.2064",
      "lng": "15.9125",
      "country": "Croatia",
      "iso2": "HR"
    },
    {
      "city": "Kloštar Podravski",
      "lat": "45.9833",
      "lng": "17.1617",
      "country": "Croatia",
      "iso2": "HR"
    },
    {
      "city": "Hvar",
      "lat": "43.1714",
      "lng": "16.4419",
      "country": "Croatia",
      "iso2": "HR"
    },
    {
      "city": "Koprivnički Ivanec",
      "lat": "46.2000",
      "lng": "16.8161",
      "country": "Croatia",
      "iso2": "HR"
    },
    {
      "city": "Ðelekovec",
      "lat": "46.2486",
      "lng": "16.8667",
      "country": "Croatia",
      "iso2": "HR"
    },
    {
      "city": "Visoko",
      "lat": "46.0903",
      "lng": "16.3250",
      "country": "Croatia",
      "iso2": "HR"
    },
    {
      "city": "Domašinec",
      "lat": "46.4333",
      "lng": "16.6000",
      "country": "Croatia",
      "iso2": "HR"
    },
    {
      "city": "Podravske Sesvete",
      "lat": "46.0000",
      "lng": "17.2117",
      "country": "Croatia",
      "iso2": "HR"
    },
    {
      "city": "Mali Bukovec",
      "lat": "46.2831",
      "lng": "16.7392",
      "country": "Croatia",
      "iso2": "HR"
    },
    {
      "city": "Rovišće",
      "lat": "45.9500",
      "lng": "16.7333",
      "country": "Croatia",
      "iso2": "HR"
    },
    {
      "city": "Ðurđenovac",
      "lat": "45.5433",
      "lng": "18.0458",
      "country": "Croatia",
      "iso2": "HR"
    },
    {
      "city": "Pirovac",
      "lat": "43.8186",
      "lng": "15.6683",
      "country": "Croatia",
      "iso2": "HR"
    },
    {
      "city": "Punat",
      "lat": "45.0100",
      "lng": "14.6300",
      "country": "Croatia",
      "iso2": "HR"
    },
    {
      "city": "Virje",
      "lat": "46.0672",
      "lng": "16.9900",
      "country": "Croatia",
      "iso2": "HR"
    },
    {
      "city": "Omiš",
      "lat": "43.4458",
      "lng": "16.6883",
      "country": "Croatia",
      "iso2": "HR"
    },
    {
      "city": "Mihovljan",
      "lat": "46.1331",
      "lng": "15.9722",
      "country": "Croatia",
      "iso2": "HR"
    },
    {
      "city": "Posedarje",
      "lat": "44.2167",
      "lng": "15.4833",
      "country": "Croatia",
      "iso2": "HR"
    },
    {
      "city": "Popovača",
      "lat": "45.5697",
      "lng": "16.6250",
      "country": "Croatia",
      "iso2": "HR"
    },
    {
      "city": "Dugopolje",
      "lat": "43.5803",
      "lng": "16.5969",
      "country": "Croatia",
      "iso2": "HR"
    },
    {
      "city": "Otok",
      "lat": "43.6914",
      "lng": "16.7383",
      "country": "Croatia",
      "iso2": "HR"
    },
    {
      "city": "Korčula",
      "lat": "42.9617",
      "lng": "17.1358",
      "country": "Croatia",
      "iso2": "HR"
    },
    {
      "city": "Donji Proložac",
      "lat": "43.4690",
      "lng": "17.1520",
      "country": "Croatia",
      "iso2": "HR"
    },
    {
      "city": "Polača",
      "lat": "44.0167",
      "lng": "15.5167",
      "country": "Croatia",
      "iso2": "HR"
    },
    {
      "city": "Poličnik",
      "lat": "44.1833",
      "lng": "15.3833",
      "country": "Croatia",
      "iso2": "HR"
    },
    {
      "city": "Jelenje",
      "lat": "45.3800",
      "lng": "14.4500",
      "country": "Croatia",
      "iso2": "HR"
    },
    {
      "city": "Starigrad",
      "lat": "43.1846",
      "lng": "16.6002",
      "country": "Croatia",
      "iso2": "HR"
    },
    {
      "city": "Hrašćina",
      "lat": "46.1100",
      "lng": "16.2200",
      "country": "Croatia",
      "iso2": "HR"
    },
    {
      "city": "Peteranec",
      "lat": "46.1922",
      "lng": "16.8917",
      "country": "Croatia",
      "iso2": "HR"
    },
    {
      "city": "Ljubešćica",
      "lat": "46.1667",
      "lng": "16.3833",
      "country": "Croatia",
      "iso2": "HR"
    },
    {
      "city": "Ðurđevac",
      "lat": "46.0411",
      "lng": "17.0697",
      "country": "Croatia",
      "iso2": "HR"
    },
    {
      "city": "Nedeščina",
      "lat": "45.1422",
      "lng": "14.1114",
      "country": "Croatia",
      "iso2": "HR"
    },
    {
      "city": "Vuka",
      "lat": "45.4339",
      "lng": "18.5050",
      "country": "Croatia",
      "iso2": "HR"
    },
    {
      "city": "Orle",
      "lat": "45.6800",
      "lng": "16.2300",
      "country": "Croatia",
      "iso2": "HR"
    },
    {
      "city": "Brtonigla",
      "lat": "45.3833",
      "lng": "13.6333",
      "country": "Croatia",
      "iso2": "HR"
    },
    {
      "city": "Bednja",
      "lat": "46.2300",
      "lng": "15.9800",
      "country": "Croatia",
      "iso2": "HR"
    },
    {
      "city": "Sveti Petar Orehovec",
      "lat": "46.0756",
      "lng": "16.4517",
      "country": "Croatia",
      "iso2": "HR"
    },
    {
      "city": "Kalnik",
      "lat": "46.1283",
      "lng": "16.4625",
      "country": "Croatia",
      "iso2": "HR"
    },
    {
      "city": "Gornja Rijeka",
      "lat": "46.1100",
      "lng": "16.3900",
      "country": "Croatia",
      "iso2": "HR"
    },
    {
      "city": "Sveti Ivan Žabno",
      "lat": "45.9461",
      "lng": "16.6133",
      "country": "Croatia",
      "iso2": "HR"
    },
    {
      "city": "Žminj",
      "lat": "45.1500",
      "lng": "13.9167",
      "country": "Croatia",
      "iso2": "HR"
    },
    {
      "city": "Hrvatska Kostajnica",
      "lat": "45.2333",
      "lng": "16.5333",
      "country": "Croatia",
      "iso2": "HR"
    },
    {
      "city": "Novigrad",
      "lat": "44.1942",
      "lng": "15.5567",
      "country": "Croatia",
      "iso2": "HR"
    },
    {
      "city": "Erdut",
      "lat": "45.5333",
      "lng": "19.0667",
      "country": "Croatia",
      "iso2": "HR"
    },
    {
      "city": "Molve",
      "lat": "46.1092",
      "lng": "17.0317",
      "country": "Croatia",
      "iso2": "HR"
    },
    {
      "city": "Raša",
      "lat": "45.0803",
      "lng": "14.0789",
      "country": "Croatia",
      "iso2": "HR"
    },
    {
      "city": "Garešnica",
      "lat": "45.5742",
      "lng": "16.9408",
      "country": "Croatia",
      "iso2": "HR"
    },
    {
      "city": "Legrad",
      "lat": "46.3000",
      "lng": "16.8667",
      "country": "Croatia",
      "iso2": "HR"
    },
    {
      "city": "Dubrava",
      "lat": "45.8381",
      "lng": "16.5439",
      "country": "Croatia",
      "iso2": "HR"
    },
    {
      "city": "Stari Jankovci",
      "lat": "45.2667",
      "lng": "18.9167",
      "country": "Croatia",
      "iso2": "HR"
    },
    {
      "city": "Drnje",
      "lat": "46.2050",
      "lng": "16.9081",
      "country": "Croatia",
      "iso2": "HR"
    },
    {
      "city": "Hercegovac",
      "lat": "45.6586",
      "lng": "17.0136",
      "country": "Croatia",
      "iso2": "HR"
    },
    {
      "city": "Kalinovac",
      "lat": "46.0231",
      "lng": "17.1119",
      "country": "Croatia",
      "iso2": "HR"
    },
    {
      "city": "Ražanac",
      "lat": "44.2833",
      "lng": "15.3500",
      "country": "Croatia",
      "iso2": "HR"
    },
    {
      "city": "Otok",
      "lat": "45.1467",
      "lng": "18.8839",
      "country": "Croatia",
      "iso2": "HR"
    },
    {
      "city": "Novo Virje",
      "lat": "46.0983",
      "lng": "17.1550",
      "country": "Croatia",
      "iso2": "HR"
    },
    {
      "city": "Lukač",
      "lat": "45.8725",
      "lng": "17.4194",
      "country": "Croatia",
      "iso2": "HR"
    },
    {
      "city": "Zadvarje",
      "lat": "43.4314",
      "lng": "16.8897",
      "country": "Croatia",
      "iso2": "HR"
    },
    {
      "city": "Pašman",
      "lat": "43.9569",
      "lng": "15.3800",
      "country": "Croatia",
      "iso2": "HR"
    },
    {
      "city": "Gradec",
      "lat": "45.9111",
      "lng": "16.4828",
      "country": "Croatia",
      "iso2": "HR"
    },
    {
      "city": "Hlebine",
      "lat": "46.1539",
      "lng": "16.9661",
      "country": "Croatia",
      "iso2": "HR"
    },
    {
      "city": "Draganići",
      "lat": "45.6000",
      "lng": "15.6000",
      "country": "Croatia",
      "iso2": "HR"
    },
    {
      "city": "Kaštelir",
      "lat": "45.3033",
      "lng": "13.6853",
      "country": "Croatia",
      "iso2": "HR"
    },
    {
      "city": "Sutivan",
      "lat": "43.3833",
      "lng": "16.4833",
      "country": "Croatia",
      "iso2": "HR"
    },
    {
      "city": "Klanjec",
      "lat": "46.0500",
      "lng": "15.7167",
      "country": "Croatia",
      "iso2": "HR"
    },
    {
      "city": "Dobrinj",
      "lat": "45.1300",
      "lng": "14.6040",
      "country": "Croatia",
      "iso2": "HR"
    },
    {
      "city": "Kraj",
      "lat": "43.6375",
      "lng": "16.5819",
      "country": "Croatia",
      "iso2": "HR"
    },
    {
      "city": "Zemunik Donji",
      "lat": "44.1067",
      "lng": "15.3806",
      "country": "Croatia",
      "iso2": "HR"
    },
    {
      "city": "Runović",
      "lat": "43.3833",
      "lng": "17.2167",
      "country": "Croatia",
      "iso2": "HR"
    },
    {
      "city": "Blato",
      "lat": "42.9408",
      "lng": "16.7917",
      "country": "Croatia",
      "iso2": "HR"
    },
    {
      "city": "Kaptol",
      "lat": "45.4347",
      "lng": "17.7261",
      "country": "Croatia",
      "iso2": "HR"
    },
    {
      "city": "Velika Ludina",
      "lat": "45.6000",
      "lng": "16.6000",
      "country": "Croatia",
      "iso2": "HR"
    },
    {
      "city": "Karojba",
      "lat": "45.3000",
      "lng": "13.8167",
      "country": "Croatia",
      "iso2": "HR"
    },
    {
      "city": "Vlaka",
      "lat": "42.9992",
      "lng": "17.5242",
      "country": "Croatia",
      "iso2": "HR"
    },
    {
      "city": "Krašić",
      "lat": "45.6500",
      "lng": "15.5167",
      "country": "Croatia",
      "iso2": "HR"
    },
    {
      "city": "Nova Rača",
      "lat": "45.7994",
      "lng": "16.9536",
      "country": "Croatia",
      "iso2": "HR"
    },
    {
      "city": "Smokvica",
      "lat": "42.9453",
      "lng": "16.9047",
      "country": "Croatia",
      "iso2": "HR"
    },
    {
      "city": "Rogoznica",
      "lat": "43.5263",
      "lng": "15.9695",
      "country": "Croatia",
      "iso2": "HR"
    },
    {
      "city": "Mošćenička Draga",
      "lat": "45.2333",
      "lng": "14.2500",
      "country": "Croatia",
      "iso2": "HR"
    },
    {
      "city": "Ozalj",
      "lat": "45.6128",
      "lng": "15.4769",
      "country": "Croatia",
      "iso2": "HR"
    },
    {
      "city": "Kravarsko",
      "lat": "45.5800",
      "lng": "16.0400",
      "country": "Croatia",
      "iso2": "HR"
    },
    {
      "city": "Ferdinandovac",
      "lat": "46.0611",
      "lng": "17.1914",
      "country": "Croatia",
      "iso2": "HR"
    },
    {
      "city": "Novigrad Podravski",
      "lat": "46.0781",
      "lng": "16.9539",
      "country": "Croatia",
      "iso2": "HR"
    },
    {
      "city": "Vis",
      "lat": "43.0603",
      "lng": "16.1836",
      "country": "Croatia",
      "iso2": "HR"
    },
    {
      "city": "Privlaka",
      "lat": "45.1947",
      "lng": "18.8375",
      "country": "Croatia",
      "iso2": "HR"
    },
    {
      "city": "Bogdanovci",
      "lat": "45.3333",
      "lng": "18.9333",
      "country": "Croatia",
      "iso2": "HR"
    },
    {
      "city": "Kamanje",
      "lat": "45.6358",
      "lng": "15.3944",
      "country": "Croatia",
      "iso2": "HR"
    },
    {
      "city": "Buzet",
      "lat": "45.4072",
      "lng": "13.9647",
      "country": "Croatia",
      "iso2": "HR"
    },
    {
      "city": "Višnjan",
      "lat": "45.2761",
      "lng": "13.7200",
      "country": "Croatia",
      "iso2": "HR"
    },
    {
      "city": "Gola",
      "lat": "46.1958",
      "lng": "17.0581",
      "country": "Croatia",
      "iso2": "HR"
    },
    {
      "city": "Mali Lošinj",
      "lat": "44.5339",
      "lng": "14.4681",
      "country": "Croatia",
      "iso2": "HR"
    },
    {
      "city": "Popovac",
      "lat": "45.8092",
      "lng": "18.6583",
      "country": "Croatia",
      "iso2": "HR"
    },
    {
      "city": "Rakovec",
      "lat": "45.9303",
      "lng": "16.3225",
      "country": "Croatia",
      "iso2": "HR"
    },
    {
      "city": "Cavtat",
      "lat": "42.5811",
      "lng": "18.2181",
      "country": "Croatia",
      "iso2": "HR"
    },
    {
      "city": "Pićan",
      "lat": "45.2039",
      "lng": "14.0406",
      "country": "Croatia",
      "iso2": "HR"
    },
    {
      "city": "Marčana",
      "lat": "44.9567",
      "lng": "13.9550",
      "country": "Croatia",
      "iso2": "HR"
    },
    {
      "city": "Marina",
      "lat": "43.5147",
      "lng": "16.1064",
      "country": "Croatia",
      "iso2": "HR"
    },
    {
      "city": "Klis",
      "lat": "43.5667",
      "lng": "16.5167",
      "country": "Croatia",
      "iso2": "HR"
    },
    {
      "city": "Nin",
      "lat": "44.2397",
      "lng": "15.1811",
      "country": "Croatia",
      "iso2": "HR"
    },
    {
      "city": "Selca",
      "lat": "43.3000",
      "lng": "16.8500",
      "country": "Croatia",
      "iso2": "HR"
    },
    {
      "city": "Čazma",
      "lat": "45.7492",
      "lng": "16.6144",
      "country": "Croatia",
      "iso2": "HR"
    },
    {
      "city": "Vižinada",
      "lat": "45.3333",
      "lng": "13.7667",
      "country": "Croatia",
      "iso2": "HR"
    },
    {
      "city": "Orebić",
      "lat": "42.9744",
      "lng": "17.1786",
      "country": "Croatia",
      "iso2": "HR"
    },
    {
      "city": "Stankovci",
      "lat": "43.9167",
      "lng": "15.7000",
      "country": "Croatia",
      "iso2": "HR"
    },
    {
      "city": "Severin",
      "lat": "45.8369",
      "lng": "16.9592",
      "country": "Croatia",
      "iso2": "HR"
    },
    {
      "city": "Nova Kapela",
      "lat": "45.1989",
      "lng": "17.6392",
      "country": "Croatia",
      "iso2": "HR"
    },
    {
      "city": "Lipovljani",
      "lat": "45.4000",
      "lng": "16.8900",
      "country": "Croatia",
      "iso2": "HR"
    },
    {
      "city": "Gorjani",
      "lat": "45.4000",
      "lng": "18.3667",
      "country": "Croatia",
      "iso2": "HR"
    },
    {
      "city": "Trilj",
      "lat": "43.6167",
      "lng": "16.7167",
      "country": "Croatia",
      "iso2": "HR"
    },
    {
      "city": "Lipik",
      "lat": "45.4142",
      "lng": "17.1611",
      "country": "Croatia",
      "iso2": "HR"
    },
    {
      "city": "Gradina",
      "lat": "45.8550",
      "lng": "17.5072",
      "country": "Croatia",
      "iso2": "HR"
    },
    {
      "city": "Komiža",
      "lat": "43.0436",
      "lng": "16.0894",
      "country": "Croatia",
      "iso2": "HR"
    },
    {
      "city": "Žakanje",
      "lat": "45.6000",
      "lng": "15.3400",
      "country": "Croatia",
      "iso2": "HR"
    },
    {
      "city": "Grohote",
      "lat": "43.3917",
      "lng": "16.2872",
      "country": "Croatia",
      "iso2": "HR"
    },
    {
      "city": "Štefanje",
      "lat": "45.8000",
      "lng": "16.7200",
      "country": "Croatia",
      "iso2": "HR"
    },
    {
      "city": "Tinjan",
      "lat": "45.2172",
      "lng": "13.8389",
      "country": "Croatia",
      "iso2": "HR"
    },
    {
      "city": "Barban",
      "lat": "45.1000",
      "lng": "14.0167",
      "country": "Croatia",
      "iso2": "HR"
    },
    {
      "city": "Motovun",
      "lat": "45.3358",
      "lng": "13.8278",
      "country": "Croatia",
      "iso2": "HR"
    },
    {
      "city": "Rasinja",
      "lat": "46.1839",
      "lng": "16.7067",
      "country": "Croatia",
      "iso2": "HR"
    },
    {
      "city": "Zrinski Topolovac",
      "lat": "46.0200",
      "lng": "16.7600",
      "country": "Croatia",
      "iso2": "HR"
    },
    {
      "city": "Milna",
      "lat": "43.3289",
      "lng": "16.4478",
      "country": "Croatia",
      "iso2": "HR"
    },
    {
      "city": "Skradin",
      "lat": "43.8167",
      "lng": "15.9222",
      "country": "Croatia",
      "iso2": "HR"
    },
    {
      "city": "Podgora",
      "lat": "43.2433",
      "lng": "17.0772",
      "country": "Croatia",
      "iso2": "HR"
    },
    {
      "city": "Svetvinčenat",
      "lat": "45.0881",
      "lng": "13.8817",
      "country": "Croatia",
      "iso2": "HR"
    },
    {
      "city": "Ravna Gora",
      "lat": "45.3728",
      "lng": "14.9353",
      "country": "Croatia",
      "iso2": "HR"
    },
    {
      "city": "Kolan",
      "lat": "44.4900",
      "lng": "14.9600",
      "country": "Croatia",
      "iso2": "HR"
    },
    {
      "city": "Pag",
      "lat": "44.4435",
      "lng": "15.0545",
      "country": "Croatia",
      "iso2": "HR"
    },
    {
      "city": "Lekenik",
      "lat": "45.5833",
      "lng": "16.2167",
      "country": "Croatia",
      "iso2": "HR"
    },
    {
      "city": "Farkaševac",
      "lat": "45.8794",
      "lng": "16.6408",
      "country": "Croatia",
      "iso2": "HR"
    },
    {
      "city": "Kapela",
      "lat": "45.9881",
      "lng": "16.8517",
      "country": "Croatia",
      "iso2": "HR"
    },
    {
      "city": "Kanfanar",
      "lat": "45.1233",
      "lng": "13.8400",
      "country": "Croatia",
      "iso2": "HR"
    },
    {
      "city": "Pisarovina",
      "lat": "45.5850",
      "lng": "15.8597",
      "country": "Croatia",
      "iso2": "HR"
    },
    {
      "city": "Lokvičič",
      "lat": "43.5000",
      "lng": "17.0600",
      "country": "Croatia",
      "iso2": "HR"
    },
    {
      "city": "Jelsa",
      "lat": "43.1600",
      "lng": "16.6900",
      "country": "Croatia",
      "iso2": "HR"
    },
    {
      "city": "Kula Norinska",
      "lat": "43.0286",
      "lng": "17.6047",
      "country": "Croatia",
      "iso2": "HR"
    },
    {
      "city": "Vrbnik",
      "lat": "45.0833",
      "lng": "14.6667",
      "country": "Croatia",
      "iso2": "HR"
    },
    {
      "city": "Lokve",
      "lat": "45.3581",
      "lng": "14.7481",
      "country": "Croatia",
      "iso2": "HR"
    },
    {
      "city": "Generalski Stol",
      "lat": "45.3400",
      "lng": "15.3800",
      "country": "Croatia",
      "iso2": "HR"
    },
    {
      "city": "Ogulin",
      "lat": "45.2669",
      "lng": "15.2248",
      "country": "Croatia",
      "iso2": "HR"
    },
    {
      "city": "Pakrac",
      "lat": "45.4389",
      "lng": "17.1917",
      "country": "Croatia",
      "iso2": "HR"
    },
    {
      "city": "Bribir",
      "lat": "45.1611",
      "lng": "14.7647",
      "country": "Croatia",
      "iso2": "HR"
    },
    {
      "city": "Šandrovac",
      "lat": "45.9000",
      "lng": "17.0167",
      "country": "Croatia",
      "iso2": "HR"
    },
    {
      "city": "Primorski Dolac",
      "lat": "43.6308",
      "lng": "16.1761",
      "country": "Croatia",
      "iso2": "HR"
    },
    {
      "city": "Grubišno Polje",
      "lat": "45.7022",
      "lng": "17.1725",
      "country": "Croatia",
      "iso2": "HR"
    },
    {
      "city": "Sokolovac",
      "lat": "46.1108",
      "lng": "16.7064",
      "country": "Croatia",
      "iso2": "HR"
    },
    {
      "city": "Gračišće",
      "lat": "45.2194",
      "lng": "14.0103",
      "country": "Croatia",
      "iso2": "HR"
    },
    {
      "city": "Netretić",
      "lat": "45.5089",
      "lng": "15.4131",
      "country": "Croatia",
      "iso2": "HR"
    },
    {
      "city": "Otrić-Seoci",
      "lat": "43.1586",
      "lng": "17.4508",
      "country": "Croatia",
      "iso2": "HR"
    },
    {
      "city": "Kršan",
      "lat": "45.1667",
      "lng": "14.1333",
      "country": "Croatia",
      "iso2": "HR"
    },
    {
      "city": "Vrgorac",
      "lat": "43.2000",
      "lng": "17.3667",
      "country": "Croatia",
      "iso2": "HR"
    },
    {
      "city": "Velika Trnovitica",
      "lat": "45.6833",
      "lng": "16.9500",
      "country": "Croatia",
      "iso2": "HR"
    },
    {
      "city": "Drniš",
      "lat": "43.8500",
      "lng": "16.1500",
      "country": "Croatia",
      "iso2": "HR"
    },
    {
      "city": "Velika Pisanica",
      "lat": "45.8000",
      "lng": "17.0833",
      "country": "Croatia",
      "iso2": "HR"
    },
    {
      "city": "Borovo",
      "lat": "45.4053",
      "lng": "18.9758",
      "country": "Croatia",
      "iso2": "HR"
    },
    {
      "city": "Jagodnjak",
      "lat": "45.7000",
      "lng": "18.5800",
      "country": "Croatia",
      "iso2": "HR"
    },
    {
      "city": "Krnjak",
      "lat": "45.3346",
      "lng": "15.5986",
      "country": "Croatia",
      "iso2": "HR"
    },
    {
      "city": "Novi Vinodolski",
      "lat": "45.1333",
      "lng": "14.7833",
      "country": "Croatia",
      "iso2": "HR"
    },
    {
      "city": "Šestanovac",
      "lat": "43.4500",
      "lng": "16.9100",
      "country": "Croatia",
      "iso2": "HR"
    },
    {
      "city": "Janjina",
      "lat": "42.9250",
      "lng": "17.4281",
      "country": "Croatia",
      "iso2": "HR"
    },
    {
      "city": "Trnava",
      "lat": "45.2614",
      "lng": "18.2531",
      "country": "Croatia",
      "iso2": "HR"
    },
    {
      "city": "Lasinja",
      "lat": "45.5286",
      "lng": "15.8528",
      "country": "Croatia",
      "iso2": "HR"
    },
    {
      "city": "Sunja",
      "lat": "45.3650",
      "lng": "16.5669",
      "country": "Croatia",
      "iso2": "HR"
    },
    {
      "city": "Otočac",
      "lat": "44.8697",
      "lng": "15.2372",
      "country": "Croatia",
      "iso2": "HR"
    },
    {
      "city": "Fužine",
      "lat": "45.3000",
      "lng": "14.7200",
      "country": "Croatia",
      "iso2": "HR"
    },
    {
      "city": "Skrad",
      "lat": "45.4278",
      "lng": "14.9111",
      "country": "Croatia",
      "iso2": "HR"
    },
    {
      "city": "Barilović",
      "lat": "45.3786",
      "lng": "15.5467",
      "country": "Croatia",
      "iso2": "HR"
    },
    {
      "city": "Ðulovac",
      "lat": "45.6661",
      "lng": "17.4333",
      "country": "Croatia",
      "iso2": "HR"
    },
    {
      "city": "Crnac",
      "lat": "45.6961",
      "lng": "17.9372",
      "country": "Croatia",
      "iso2": "HR"
    },
    {
      "city": "Baška",
      "lat": "44.9706",
      "lng": "14.7542",
      "country": "Croatia",
      "iso2": "HR"
    },
    {
      "city": "Pokupsko",
      "lat": "45.4872",
      "lng": "15.9933",
      "country": "Croatia",
      "iso2": "HR"
    },
    {
      "city": "Donji Muć",
      "lat": "43.6949",
      "lng": "16.4601",
      "country": "Croatia",
      "iso2": "HR"
    },
    {
      "city": "Cista Provo",
      "lat": "43.5000",
      "lng": "16.9500",
      "country": "Croatia",
      "iso2": "HR"
    },
    {
      "city": "Čabar",
      "lat": "45.5964",
      "lng": "14.6458",
      "country": "Croatia",
      "iso2": "HR"
    },
    {
      "city": "Majur",
      "lat": "45.2550",
      "lng": "16.5319",
      "country": "Croatia",
      "iso2": "HR"
    },
    {
      "city": "Sveti Lovreč Pazenatički",
      "lat": "45.1761",
      "lng": "13.7442",
      "country": "Croatia",
      "iso2": "HR"
    },
    {
      "city": "Klana",
      "lat": "45.4500",
      "lng": "14.3667",
      "country": "Croatia",
      "iso2": "HR"
    },
    {
      "city": "Vrbovsko",
      "lat": "45.3700",
      "lng": "15.0800",
      "country": "Croatia",
      "iso2": "HR"
    },
    {
      "city": "Hrvace",
      "lat": "43.7600",
      "lng": "16.6200",
      "country": "Croatia",
      "iso2": "HR"
    },
    {
      "city": "Cerovlje",
      "lat": "45.2783",
      "lng": "14.0122",
      "country": "Croatia",
      "iso2": "HR"
    },
    {
      "city": "Sirač",
      "lat": "45.5167",
      "lng": "17.2500",
      "country": "Croatia",
      "iso2": "HR"
    },
    {
      "city": "Topusko",
      "lat": "45.2931",
      "lng": "15.9722",
      "country": "Croatia",
      "iso2": "HR"
    },
    {
      "city": "Kistanje",
      "lat": "43.9875",
      "lng": "15.9608",
      "country": "Croatia",
      "iso2": "HR"
    },
    {
      "city": "Cetingrad",
      "lat": "45.1606",
      "lng": "15.7367",
      "country": "Croatia",
      "iso2": "HR"
    },
    {
      "city": "Bale",
      "lat": "45.0458",
      "lng": "13.7872",
      "country": "Croatia",
      "iso2": "HR"
    },
    {
      "city": "Lišane Ostrovičke",
      "lat": "43.9667",
      "lng": "15.7667",
      "country": "Croatia",
      "iso2": "HR"
    },
    {
      "city": "Ston",
      "lat": "42.8333",
      "lng": "17.7000",
      "country": "Croatia",
      "iso2": "HR"
    },
    {
      "city": "Lastovo",
      "lat": "42.7681",
      "lng": "16.8842",
      "country": "Croatia",
      "iso2": "HR"
    },
    {
      "city": "Donji Kukuruzari",
      "lat": "45.2646",
      "lng": "16.4838",
      "country": "Croatia",
      "iso2": "HR"
    },
    {
      "city": "Lovreć",
      "lat": "43.5000",
      "lng": "17.0000",
      "country": "Croatia",
      "iso2": "HR"
    },
    {
      "city": "Plaški",
      "lat": "45.0833",
      "lng": "15.3667",
      "country": "Croatia",
      "iso2": "HR"
    },
    {
      "city": "Biskupija",
      "lat": "44.0000",
      "lng": "16.2333",
      "country": "Croatia",
      "iso2": "HR"
    },
    {
      "city": "Gvozd",
      "lat": "45.3503",
      "lng": "15.8806",
      "country": "Croatia",
      "iso2": "HR"
    },
    {
      "city": "Obrovac",
      "lat": "44.1992",
      "lng": "15.6817",
      "country": "Croatia",
      "iso2": "HR"
    },
    {
      "city": "Slunj",
      "lat": "45.1156",
      "lng": "15.5847",
      "country": "Croatia",
      "iso2": "HR"
    },
    {
      "city": "Jesenice",
      "lat": "44.2300",
      "lng": "15.5775",
      "country": "Croatia",
      "iso2": "HR"
    },
    {
      "city": "Starigrad",
      "lat": "44.2931",
      "lng": "15.4431",
      "country": "Croatia",
      "iso2": "HR"
    },
    {
      "city": "Brod Moravice",
      "lat": "45.4600",
      "lng": "14.9700",
      "country": "Croatia",
      "iso2": "HR"
    },
    {
      "city": "Berek",
      "lat": "45.7414",
      "lng": "16.8303",
      "country": "Croatia",
      "iso2": "HR"
    },
    {
      "city": "Jasenovac",
      "lat": "45.2717",
      "lng": "16.9117",
      "country": "Croatia",
      "iso2": "HR"
    },
    {
      "city": "Nerežišće",
      "lat": "43.3300",
      "lng": "16.5750",
      "country": "Croatia",
      "iso2": "HR"
    },
    {
      "city": "Dvor",
      "lat": "45.0689",
      "lng": "16.3764",
      "country": "Croatia",
      "iso2": "HR"
    },
    {
      "city": "Oprtalj",
      "lat": "45.3819",
      "lng": "13.8242",
      "country": "Croatia",
      "iso2": "HR"
    },
    {
      "city": "Bosiljevo",
      "lat": "45.4000",
      "lng": "15.3000",
      "country": "Croatia",
      "iso2": "HR"
    },
    {
      "city": "Senj",
      "lat": "44.9903",
      "lng": "14.9014",
      "country": "Croatia",
      "iso2": "HR"
    },
    {
      "city": "Ribnik",
      "lat": "45.5756",
      "lng": "15.3528",
      "country": "Croatia",
      "iso2": "HR"
    },
    {
      "city": "Vrhovine",
      "lat": "44.8517",
      "lng": "15.4192",
      "country": "Croatia",
      "iso2": "HR"
    },
    {
      "city": "Babino Polje",
      "lat": "42.7333",
      "lng": "17.5619",
      "country": "Croatia",
      "iso2": "HR"
    },
    {
      "city": "Mlinište",
      "lat": "42.9925",
      "lng": "17.6158",
      "country": "Croatia",
      "iso2": "HR"
    },
    {
      "city": "Lupoglav",
      "lat": "45.3528",
      "lng": "14.1075",
      "country": "Croatia",
      "iso2": "HR"
    },
    {
      "city": "Slano",
      "lat": "42.7861",
      "lng": "17.8919",
      "country": "Croatia",
      "iso2": "HR"
    },
    {
      "city": "Cres",
      "lat": "44.9614",
      "lng": "14.4078",
      "country": "Croatia",
      "iso2": "HR"
    },
    {
      "city": "Grožnjan",
      "lat": "45.3833",
      "lng": "13.7167",
      "country": "Croatia",
      "iso2": "HR"
    },
    {
      "city": "Ružić",
      "lat": "43.8167",
      "lng": "16.2500",
      "country": "Croatia",
      "iso2": "HR"
    },
    {
      "city": "Rakovica",
      "lat": "45.0167",
      "lng": "15.6500",
      "country": "Croatia",
      "iso2": "HR"
    },
    {
      "city": "Brinje",
      "lat": "45.0000",
      "lng": "15.1333",
      "country": "Croatia",
      "iso2": "HR"
    },
    {
      "city": "Sućuraj",
      "lat": "43.1253",
      "lng": "17.1861",
      "country": "Croatia",
      "iso2": "HR"
    },
    {
      "city": "Unešić",
      "lat": "43.7400",
      "lng": "16.1889",
      "country": "Croatia",
      "iso2": "HR"
    },
    {
      "city": "Žumberak",
      "lat": "45.7500",
      "lng": "15.4333",
      "country": "Croatia",
      "iso2": "HR"
    },
    {
      "city": "Korenica",
      "lat": "44.7439",
      "lng": "15.7097",
      "country": "Croatia",
      "iso2": "HR"
    },
    {
      "city": "Oklaj",
      "lat": "43.9506",
      "lng": "16.0822",
      "country": "Croatia",
      "iso2": "HR"
    },
    {
      "city": "Zagvozd",
      "lat": "43.5000",
      "lng": "16.9500",
      "country": "Croatia",
      "iso2": "HR"
    },
    {
      "city": "Mrkopalj",
      "lat": "45.3167",
      "lng": "14.8500",
      "country": "Croatia",
      "iso2": "HR"
    },
    {
      "city": "Perušić",
      "lat": "44.6076",
      "lng": "15.2346",
      "country": "Croatia",
      "iso2": "HR"
    },
    {
      "city": "Lećevica",
      "lat": "43.6489",
      "lng": "16.3489",
      "country": "Croatia",
      "iso2": "HR"
    },
    {
      "city": "Donji Lapac",
      "lat": "44.5500",
      "lng": "15.9667",
      "country": "Croatia",
      "iso2": "HR"
    },
    {
      "city": "Ervenik",
      "lat": "44.1077",
      "lng": "15.9399",
      "country": "Croatia",
      "iso2": "HR"
    },
    {
      "city": "Kijevo",
      "lat": "43.9789",
      "lng": "16.3511",
      "country": "Croatia",
      "iso2": "HR"
    },
    {
      "city": "Sali",
      "lat": "43.9333",
      "lng": "15.1667",
      "country": "Croatia",
      "iso2": "HR"
    },
    {
      "city": "Gračac",
      "lat": "44.2972",
      "lng": "15.8500",
      "country": "Croatia",
      "iso2": "HR"
    },
    {
      "city": "Saborsko",
      "lat": "44.9836",
      "lng": "15.4786",
      "country": "Croatia",
      "iso2": "HR"
    },
    {
      "city": "Civljane",
      "lat": "43.9500",
      "lng": "16.4000",
      "country": "Croatia",
      "iso2": "HR"
    },
    {
      "city": "Karlobag",
      "lat": "44.5255",
      "lng": "15.0726",
      "country": "Croatia",
      "iso2": "HR"
    },
    {
      "city": "Udbina",
      "lat": "44.5622",
      "lng": "15.7708",
      "country": "Croatia",
      "iso2": "HR"
    },
    {
      "city": "Lovinac",
      "lat": "44.3900",
      "lng": "15.6900",
      "country": "Croatia",
      "iso2": "HR"
    },
    {
      "city": "Lanišće",
      "lat": "45.4072",
      "lng": "14.1164",
      "country": "Croatia",
      "iso2": "HR"
    }
  ],
  "users": [
    {
      "adminaccess": true,
      "email": "admin@admin.com",
      "name": "admin",
      "oib": "12312312",
      "password": "admin",
      "surname": "admin",
      "username": "admin"
    }
  ]
}